[
	{
		"title": "淺草寺",
		"latitude": "35.714514",
		"longitude": "139.796715",
		"placeDetail": "",
		"address": "東京都台東区浅草2-3-1 諸堂",
		"date": "7/2",
		"day": "1",
		"type": "tour"
	},
	{
		"title": "明治神宮",
		"latitude": "35.676488",
		"longitude": "139.699190",
		"placeDetail": "",
		"address": "Yoyogikamizonocho, Shibuya, Tokyo 151-8557",
		"date": "7/3",
		"day": "2",
		"type": "tour"
	},
	{
		"title": "御台場海濱公園",
		"latitude": "35.629220",
		"longitude": "139.775264",
		"placeDetail": "",
		"address": "台場一丁目",
		"date": "7/3",
		"day": "2",
		"type": "tour"
	},
	{
		"title": "千葉市",
		"latitude": "35.612942",
		"longitude": "140.111751",
		"placeDetail": "",
		"address": "千葉市",
		"date": "7/7",
		"day": "6",
		"type": "tour"
	},
	{
		"title": "皇居",
		"latitude": "35.685197",
		"longitude": "139.752949",
		"placeDetail": "",
		"address": "1-1 Chiyoda, Tokyo 100-8111日本",
		"date": "7/3",
		"day": "",
		"type": "tour"
	},
	{
		"title": "代代木公園",
		"latitude": "35.670297",
		"longitude": "139.699435",
		"placeDetail": "",
		"address": "代代木神園町／神南二丁目",
		"date": "7/3",
		"day": "",
		"type": "tour"
	},
	{
		"title": "銀座",
		"latitude": "35.669942",
		"longitude": "139.765216",
		"placeDetail": "",
		"address": "Tōkyō-to, Chūō-ku, Ginza, 5 Chome−9−8",
		"date": "7/3",
		"day": "",
		"type": "tour"
	},
	{
		"title": "六本木之丘森大樓52F",
		"latitude": "35.660396",
		"longitude": "139.728871",
		"placeDetail": "",
		"address": "東京都港区六本木6-10-1六本木站1C出口",
		"date": "7/3",
		"day": "",
		"type": "tour"
	},
	{
		"title": "東京晴空塔",
		"latitude": "35.710024",
		"longitude": "139.810711",
		"placeDetail": "",
		"address": "131-0045 Tokyo, Sumida, Oshiage, 1−１−２",
		"date": "7/2",
		"day": "1",
		"type": "tour"
	},
	{
		"title": "築地市場",
		"latitude": "35.665885",
		"longitude": "139.769995",
		"placeDetail": "",
		"address": "5-2-1 Tsukiji, Chūō, Tokyo 104-0045日本",
		"date": "7/3",
		"day": "",
		"type": "tour"
	},
	{
		"title": "柳橋飯店 Hotel Yanagibasi",
		"latitude": "35.696103",
		"longitude": "139.786354",
		"address": "1-3-12, Yanagibashi Taito-ku Tokyo Tokyo-to 111-0052 Japan",
		"placeDetail": "飯店",
		"date": "7/2~7/5",
		"day": "",
		"type": "live"
	},
	{
		"title": "浅草橋駅",
		"latitude": "35.697593",
		"longitude": "139.786362",
		"address": "台東区 浅草橋1-18-11",
		"placeDetail": "",
		"date": "",
		"day": "",
		"type": "station"
	},
	{
		"title": "押上駅",
		"latitude": "35.710715",
		"longitude": "139.812860",
		"address": "東京都墨田区押上1-1-65",
		"placeDetail": "東京晴空塔附近",
		"date": "7/2",
		"day": "",
		"type": "station"
	},
	{
		"title": "秋葉原",
		"latitude": "35.698718",
		"longitude": " 139.774026",
		"address": "東京都千代田區外神田",
		"placeDetail": "",
		"date": "7/2",
		"day": "1",
		"type": "station"
	},
	{
		"title": "新宿中央公園",
		"latitude": "35.690191",
		"longitude": "139.690059",
		"address": "東京都新宿区西新宿2丁目",
		"placeDetail": "二手市集拍賣,7/5 9:00~15:00",
		"date": "7/5",
		"day": "",
		"type": "shopping"
	},
	{
		"title": "成田機場",
		"latitude": "35.772187",
		"longitude": "140.392925",
		"address": "Narita Airport Station",
		"placeDetail": "",
		"date": "7/7",
		"day": "",
		"type": "airplane"
	},
	{
		"title": "Apple Store 表參道",
		"latitude": "35.666612",
		"longitude": "139.711024",
		"address": "東京都渋谷区神宮前4-2-13",
		"placeDetail": "",
		"date": "",
		"day": "",
		"type": "shopping"
	},
	{
		"title": "Bape Store 原宿",
		"latitude": "35.667915",
		"longitude": "139.708480",
		"address": "東京都渋谷区神宮前4-21-5",
		"placeDetail": "11:00~20:00",
		"date": "",
		"day": "",
		"type": "shopping"
	},
	{
		"title": "渋谷ヒカリエ/Shibuya Hikarie",
		"latitude": "35.659135",
		"longitude": "139.703560",
		"address": "東京都渋谷区渋谷二丁目２１番１号",
		"placeDetail": "11:00~23:00",
		"date": "",
		"day": "",
		"type": "shopping"
	},
	{
		"title": "Premium Outlets",
		"latitude": "35.712997,",
		"longitude": "140.293287",
		"address": "千葉縣 Premium Outlets",
		"placeDetail": "10:00～20:00",
		"date": "",
		"day": "",
		"type": "shopping"
	},
	{
		"title": "big camera電器  新宿西口店",
		"latitude": "35.692501",
		"longitude": "139.698380",
		"address": "東京都新宿区西新宿1-5-1 新宿西口ハルク",
		"placeDetail": "big camera電器  新宿西口店",
		"date": "",
		"day": "",
		"type": "shopping"
	},
	{
		"title": "Supreme Tokyo(Harajuku)",
		"latitude": "35.669254",
		"longitude": "139.706668",
		"address": "東京Supreme(原宿店)",
		"placeDetail": "東京Supreme(原宿店)",
		"date": "",
		"day": "",
		"type": "shopping"
	},
	{
		"title": "big camera電器 新宿東口駅前店",
		"latitude": "35.691849",
		"longitude": "139.701908",
		"address": "東京都新宿区新宿3-26-10",
		"placeDetail": "big camera電器 新宿東口駅前店",
		"date": "",
		"day": "",
		"type": "shopping"
	},
	{
		"title": "yodobashi",
		"latitude": "35.689829",
		"longitude": "139.697895",
		"address": "東京都新宿区西新宿1-11-1",
		"placeDetail": "耳機,電器店",
		"date": "",
		"day": "",
		"type": "shopping"
	},
	{
		"title": "Head Porter",
		"latitude": "35.669900",
		"longitude": "139.707601",
		"address": "東京都渋谷区神宮前3-21-12",
		"placeDetail": "12:00~19:00",
		"date": "",
		"day": "",
		"type": "shopping"
	},
	{
		"title": "上野 阿美橫町",
		"latitude": "35.709689",
		"longitude": "139.774652",
		"address": "上野 阿美橫町",
		"placeDetail": "",
		"date": "",
		"day": "",
		"type": "shopping"
	},
	{
		"title": "DiverCity Tokyo Plaza",
		"latitude": "35.625348",
		"longitude": "139.775463",
		"address": "DiverCity Tokyo Plaza",
		"placeDetail": "",
		"date": "",
		"day": "",
		"type": "shopping"
	},
	{
		"title": "軽井沢 Prince Shopping Plaza",
		"latitude": "36.339519",
		"longitude": "138.631967",
		"address": "日本 長野県北佐久郡軽井沢町大字軽井沢 Kutsushita-ya Karuizawa Prince Shopping Plaza",
		"placeDetail": "",
		"date": "5",
		"day": "7/6",
		"type": "shopping"
	},
	{
		"title": "池袋",
		"latitude": "35.730576",
		"longitude": "139.710449",
		"address": "東京都 池袋",
		"placeDetail": "",
		"date": "",
		"day": "",
		"type": "shopping"
	},
	{
		"title": "松阪牛専門店",
		"latitude": "35.703594",
		"longitude": "139.579539",
		"address": "東京都武蔵野市吉祥寺本町1-1-8",
		"placeDetail": "炸牛肉丸",
		"date": "",
		"day": "",
		"type": "eat"
	}
]
